[{"pk": 1, "model": "business.business", "fields": {"organization_subtype": "Pizza", "name": "Sliver", "avg_wait_time": "0.5", "organization_type": "Restaurant", "lat": "37.870271", "lng": "-122.267025"}}, {"pk": 2, "model": "business.business", "fields": {"organization_subtype": "Pizza", "name": "Arinell", "avg_wait_time": "0.1", "organization_type": "Restaurant", "lat": "37.870913", "lng": "-122.267543"}}, {"pk": 3, "model": "business.business", "fields": {"organization_subtype": "Pizza", "name": "Cheeseboard", "avg_wait_time": "0.5", "organization_type": "Restaurant", "lat": "37.873534", "lng": "-122.268715"}}, {"pk": 4, "model": "business.business", "fields": {"organization_subtype": "Pizza", "name": "Dominos", "avg_wait_time": "0.1", "organization_type": "Restaurant", "lat": "37.872395", "lng": "-122.267626"}}, {"pk": 5, "model": "business.business", "fields": {"organization_subtype": "Coffee Shop", "name": "Starbucks", "avg_wait_time": "0.2", "organization_type": "Cafe", "lat": "37.870413", "lng": "-122.266089"}}, {"pk": 6, "model": "business.business", "fields": {"organization_subtype": "Coffee Shop", "name": "Yali's on Oxford", "avg_wait_time": "0.4", "organization_type": "Restaurant", "lat": "37.873456", "lng": "-122.266368"}}, {"pk": 7, "model": "business.business", "fields": {"organization_subtype": "Coffee Shop", "name": "Northside Caf\u00e9", "avg_wait_time": "0.4", "organization_type": "Cafe", "lat": "37.875185", "lng": "-122.260331"}}, {"pk": 8, "model": "business.business", "fields": {"organization_subtype": "Coffee Shop", "name": "Brewed Awakenings", "avg_wait_time": "0.2", "organization_type": "Cafe", "lat": "37.87574", "lng": "-122.260105"}}]